[
  {"name": "Douala", "lat": 4.0511, "lng": 9.7679, "region": "Littoral"},
  {"name": "Yaoundé", "lat": 3.8480, "lng": 11.5021, "region": "Centre"},
  {"name": "Bafoussam", "lat": 5.4778, "lng": 10.4176, "region": "Ouest"},
  {"name": "Garoua", "lat": 9.3014, "lng": 13.3977, "region": "Nord"},
  {"name": "Maroua", "lat": 10.5956, "lng": 14.3247, "region": "Extrême-Nord"},
  {"name": "Bertoua", "lat": 4.5773, "lng": 13.6846, "region": "Est"},
  {"name": "Ngaoundéré", "lat": 7.3274, "lng": 13.5847, "region": "Adamaoua"},
  {"name": "Bamenda", "lat": 5.9631, "lng": 10.1591, "region": "Nord-Ouest"},
  {"name": "Limbé", "lat": 4.0236, "lng": 9.2065, "region": "Sud-Ouest"},
  {"name": "Ebolowa", "lat": 2.9106, "lng": 11.1511, "region": "Sud"},
  {"name": "Kribi", "lat": 2.9381, "lng": 9.9109, "region": "Sud"},
  {"name": "Kumba", "lat": 4.6363, "lng": 9.4469, "region": "Sud-Ouest"},
  {"name": "Foumban", "lat": 5.7266, "lng": 10.8987, "region": "Ouest"},
  {"name": "Nkongsamba", "lat": 4.9547, "lng": 9.9404, "region": "Littoral"},
  {"name": "Dschang", "lat": 5.4437, "lng": 10.0536, "region": "Ouest"},
  {"name": "Edéa", "lat": 3.8000, "lng": 10.1333, "region": "Littoral"},
  {"name": "Mbouda", "lat": 5.6256, "lng": 10.2542, "region": "Ouest"},
  {"name": "Sangmélima", "lat": 2.9333, "lng": 11.9833, "region": "Sud"},
  {"name": "Mbalmayo", "lat": 3.5167, "lng": 11.5000, "region": "Centre"},
  {"name": "Bafia", "lat": 4.7500, "lng": 11.2333, "region": "Centre"},
  {"name": "Tiko", "lat": 4.0750, "lng": 9.3600, "region": "Sud-Ouest"},
  {"name": "Mokolo", "lat": 10.7448, "lng": 13.8021, "region": "Extrême-Nord"},
  {"name": "Meiganga", "lat": 6.5167, "lng": 14.3000, "region": "Adamaoua"},
  {"name": "Yagoua", "lat": 10.3411, "lng": 15.2329, "region": "Extrême-Nord"},
  {"name": "Wum", "lat": 6.3833, "lng": 10.0667, "region": "Nord-Ouest"},
  {"name": "Buea", "lat": 4.1514, "lng": 9.2415, "region": "Sud-Ouest"},
  {"name": "Mamfe", "lat": 5.7500, "lng": 9.2833, "region": "Sud-Ouest"},
  {"name": "Obala", "lat": 4.1667, "lng": 11.5167, "region": "Centre"},
  {"name": "Batouri", "lat": 4.4333, "lng": 14.3667, "region": "Est"},
  {"name": "Kousseri", "lat": 12.0769, "lng": 15.0300, "region": "Extrême-Nord"},
  {"name": "Banyo", "lat": 6.7500, "lng": 11.8167, "region": "Adamaoua"},
  {"name": "Mora", "lat": 11.0461, "lng": 14.1408, "region": "Extrême-Nord"},
  {"name": "Kaélé", "lat": 10.1092, "lng": 14.4506, "region": "Extrême-Nord"},
  {"name": "Guider", "lat": 9.9333, "lng": 13.9500, "region": "Nord"},
  {"name": "Tibati", "lat": 6.4667, "lng": 12.6167, "region": "Adamaoua"},
  {"name": "Bamendjou", "lat": 5.4167, "lng": 10.2500, "region": "Ouest"},
  {"name": "Bafang", "lat": 5.1600, "lng": 10.1800, "region": "Ouest"},
  {"name": "Penja", "lat": 4.6400, "lng": 9.6600, "region": "Littoral"},
  {"name": "Eseka", "lat": 3.6500, "lng": 10.7833, "region": "Centre"},
  {"name": "Akonolinga", "lat": 4.1833, "lng": 12.2500, "region": "Centre"},
  {"name": "Nanga Eboko", "lat": 4.6833, "lng": 12.3667, "region": "Centre"},
  {"name": "Bertoua", "lat": 4.5773, "lng": 13.6846, "region": "Est"},
  {"name": "Mbandjock", "lat": 4.4833, "lng": 11.9000, "region": "Centre"},
  {"name": "Bali", "lat": 5.8667, "lng": 10.0167, "region": "Nord-Ouest"},
  {"name": "Fontem", "lat": 5.4000, "lng": 9.9000, "region": "Sud-Ouest"},
  {"name": "Ngoumou", "lat": 3.5167, "lng": 11.3000, "region": "Centre"},
  {"name": "Lolodorf", "lat": 3.2333, "lng": 10.7333, "region": "Sud"},
  {"name": "Mora", "lat": 11.0461, "lng": 14.1408, "region": "Extrême-Nord"},
  {"name": "Garoua-Boulaï", "lat": 5.8833, "lng": 14.5500, "region": "Est"},
  {"name": "Abong-Mbang", "lat": 3.9833, "lng": 13.1833, "region": "Est"},
  {"name": "Manjo", "lat": 4.8500, "lng": 9.8200, "region": "Littoral"},
  {"name": "Mbanga", "lat": 4.5000, "lng": 9.5667, "region": "Littoral"},
  {"name": "Pouma", "lat": 3.5833, "lng": 10.7833, "region": "Littoral"},
  {"name": "Yokadouma", "lat": 3.5167, "lng": 15.0500, "region": "Est"},
  {"name": "Minta", "lat": 4.6333, "lng": 12.4500, "region": "Centre"},
  {"name": "Belabo", "lat": 4.9333, "lng": 13.3000, "region": "Est"},
  {"name": "Dimako", "lat": 4.3833, "lng": 13.5667, "region": "Est"},
  {"name": "Mbalmayo", "lat": 3.5167, "lng": 11.5000, "region": "Centre"},
  {"name": "Bogo", "lat": 10.7333, "lng": 14.6100, "region": "Extrême-Nord"},
  {"name": "Bamessingue", "lat": 5.7000, "lng": 10.2500, "region": "Ouest"},
  {"name": "Bamunka", "lat": 6.2000, "lng": 10.7000, "region": "Nord-Ouest"},
  {"name": "Bamali", "lat": 6.2000, "lng": 10.4000, "region": "Nord-Ouest"},
  {"name": "Bamunka", "lat": 6.2000, "lng": 10.7000, "region": "Nord-Ouest"},
  {"name": "Bamendjou", "lat": 5.4167, "lng": 10.2500, "region": "Ouest"},
  {"name": "Bafang", "lat": 5.1600, "lng": 10.1800, "region": "Ouest"},
  {"name": "Bana", "lat": 5.2333, "lng": 10.2833, "region": "Ouest"},
  {"name": "Bangangté", "lat": 5.1400, "lng": 10.5200, "region": "Ouest"},
  {"name": "Bangou", "lat": 5.2500, "lng": 10.3500, "region": "Ouest"},
  {"name": "Bansoa", "lat": 5.3500, "lng": 10.3500, "region": "Ouest"},
  {"name": "Batié", "lat": 5.2833, "lng": 10.2833, "region": "Ouest"},
  {"name": "Bazou", "lat": 5.1000, "lng": 10.5000, "region": "Ouest"},
  {"name": "Dizangué", "lat": 3.7667, "lng": 9.9833, "region": "Littoral"},
  {"name": "Fongo-Tongo", "lat": 5.3667, "lng": 10.1000, "region": "Ouest"},
  {"name": "Foumbot", "lat": 5.5167, "lng": 10.6333, "region": "Ouest"},
  {"name": "Galim", "lat": 5.6167, "lng": 10.3833, "region": "Ouest"},
  {"name": "Kekem", "lat": 5.1000, "lng": 10.0500, "region": "Ouest"},
  {"name": "Koutaba", "lat": 5.7000, "lng": 10.7667, "region": "Ouest"},
  {"name": "Magba", "lat": 5.5167, "lng": 10.9500, "region": "Ouest"},
  {"name": "Makenene", "lat": 4.8667, "lng": 11.2833, "region": "Centre"},
  {"name": "Massangam", "lat": 5.3667, "lng": 10.2000, "region": "Ouest"},
  {"name": "Melong", "lat": 5.1200, "lng": 9.9600, "region": "Littoral"},
  {"name": "Ndop", "lat": 5.9500, "lng": 10.4500, "region": "Nord-Ouest"},
  {"name": "Penka-Michel", "lat": 5.4500, "lng": 10.3500, "region": "Ouest"},
  {"name": "Santchou", "lat": 5.1500, "lng": 9.9833, "region": "Ouest"},
  {"name": "Tonga", "lat": 5.1000, "lng": 10.7000, "region": "Ouest"},
  {"name": "Tschang", "lat": 5.4500, "lng": 10.0500, "region": "Ouest"}
]
